[{
		"name": "三源制造",
		"address": {
			"lng": "117.21",
			"lat": "39.21"
		}
	},
	{
		"name": "于家堡洲际酒店",
		"address": {
			"lng": "117.68",
			"lat": "39.00"
		}
	},
	{
		"name": "大众一汽平台零部件",
		"address": {
			"lng": "117.56",
			"lat": "39.24"
		}
	},
	{
		"name": "一汽富维",
		"address": {
			"lng": "117.561",
			"lat": "39.117"
		}
	},
	{
		"name": "新苏能源",
		"address": {
			"lng": "117.133",
			"lat": "39.117"
		}
	},
	{
		"name": "天津海河开启桥东岸",
		"address": {
			"lng": "117.679",
			"lat": "39.00"
		}
	},
	{
		"name": "其它",
		"address": {
			"lng": "116.92",
			"lat": "38.73"
		}
	},
	{
		"name": "天津海河开启桥西岸",
		"address": {
			"lng": "117.672",
			"lat": "39.001"
		}
	},
	{
		"name": "管控中心",
		"address": {
			"lng": "117.41",
			"lat": "38.64"
		}
	}
]