{
	"GeoCoordMap": [{
			"name": "三源制造",
			"address": {
				"lng": "117.21",
				"lat": "39.21"
			}
		},
		{
			"name": "于家堡洲际酒店",
			"address": {
				"lng": "117.68",
				"lat": "39.00"
			}
		},
		{
			"name": "大众一汽平台零部件",
			"address": {
				"lng": "117.56",
				"lat": "39.24"
			}
		},
		{
			"name": "一汽富维",
			"address": {
				"lng": "117.561",
				"lat": "39.117"
			}
		},
		{
			"name": "新苏能源",
			"address": {
				"lng": "117.133",
				"lat": "39.117"
			}
		},
		{
			"name": "天津海河开启桥东岸",
			"address": {
				"lng": "117.679",
				"lat": "39.00"
			}
		},
		{
			"name": "其它",
			"address": {
				"lng": "116.92",
				"lat": "38.73"
			}
		},
		{
			"name": "天津海河开启桥西岸",
			"address": {
				"lng": "117.672",
				"lat": "39.001"
			}
		},
		{
			"name": "管控中心",
			"address": {
				"lng": "117.41",
				"lat": "38.64"
			}
		}
	],
	"TJValue": [{
			"name": "三源制造",
			"value": "100"
		},
		{
			"name": "于家堡洲际酒店",
			"value": "112"
		},
		{
			"name": "大众一汽平台零部件",
			"value": "113"
		},
		{
			"name": "一汽富维",
			"value": "114"
		},
		{
			"name": "新苏能源",
			"value": "115"
		},
		{
			"name": "天津海河开启桥东岸",
			"value": "116"
		},
		{
			"name": "其它",
			"value": "117"
		},
		{
			"name": "天津海河开启桥西岸",
			"value": "118"
		},
		{
			"name": "管控中心",
			"value": "119"
		}
	],
	"TJData": [{
		"stationone": {
			"name": "其它",
			"value": "150",
			"state": "故障",
			"baojing": "10",
			"guzhang": "728",
			"tips": "0"
		},
		"stationtwo": {
			"name": "管控中心"
		}
	}, {
		"stationone": {
			"name": "三源制造",
			"value": "90",
			"state": "正常",
			"baojing": "10",
			"guzhang": "728",
			"tips": "0"
		},
		"stationtwo": {
			"name": "管控中心"
		}
	}, {
		"stationone": {
			"name": "于家堡洲际酒店",
			"value": "20",
			"state": "正常",
			"baojing": "10",
			"guzhang": "728",
			"tips": "0"
		},
		"stationtwo": {
			"name": "管控中心"
		}
	}, {
		"stationone": {
			"name": "大众一汽平台零部件",
			"value": "30",
			"state": "正常",
			"baojing": "10",
			"guzhang": "728",
			"tips": "0"
		},
		"stationtwo": {
			"name": "管控中心"
		}
	}, {
		"stationone": {
			"name": "一汽富维",
			"value": "40",
			"state": "正常",
			"baojing": "10",
			"guzhang": "728",
			"tips": "0"
		},
		"stationtwo": {
			"name": "管控中心"
		}
	}, {
		"stationone": {
			"name": "新苏能源",
			"value": "50",
			"state": "正常",
			"baojing": "10",
			"guzhang": "728",
			"tips": "0"
		},
		"stationtwo": {
			"name": "管控中心"
		}
	}, {
		"stationone": {
			"name": "天津海河开启桥东岸",
			"value": "60",
			"state": "正常",
			"baojing": "10",
			"guzhang": "728",
			"tips": "0"
		},
		"stationtwo": {
			"name": "管控中心"
		}
	}, {
		"stationone": {
			"name": "天津海河开启桥西岸",
			"value": "70",
			"state": "正常",
			"baojing": "10",
			"guzhang": "728",
			"tips": "0"
		},
		"stationtwo": {
			"name": "管控中心"
		}
	}]


}